Group,Title,Image,Description,Address,Latitude,Longitude,Found Address,Match Quality,Source,Category
a,Fiji,https://www.edx.org/sites/default/files/trinity1.jpg,"Not in the link <a href=""http://www.trincoll.edu"" target=""_blank"">view website</a> more not in the link","300 Summit St, Hartford CT 06106",17.7134,178.0650,"300 SUMMIT ST, HARTFORD, CT, 06106",Exact,US Census,Adults
a,PNG,https://upload.wikimedia.org/wikipedia/commons/4/41/You_are_here_-_T-shirt.jpg,"<a href=""http://wesleyan.edu"" target=""_blank"">view website</a>",45 Wyllys Ave Middletown CT 06459,-17.4624892,179.2583049,"45 WYLLYS AVE, MIDDLETOWN, CT, 06459",Exact,US Census,Youth
a,Samoa,https://upload.wikimedia.org/wikipedia/commons/4/41/You_are_here_-_T-shirt.jpg,"<a href=""http://conncoll.edu"" target=""_blank"">view website</a>","270 Mohegan Ave, New London CT",-6.2645902,148.9638467,"270 MOHEGAN AVE PKWY, NEW LONDON, CT, 06320",Match,US Census,Seniors
a,Solomon Islands,https://upload.wikimedia.org/wikipedia/commons/4/41/You_are_here_-_T-shirt.jpg,"<a href=""http://yale.edu"" target=""_blank"">view website</a>",149 Elm St New Haven CT,-6.2645902,148.9638467,"149 ELM ST, NEW HAVEN, CT, 06511",Match,US Census,Men
a,Tonga,https://upload.wikimedia.org/wikipedia/commons/4/41/You_are_here_-_T-shirt.jpg,"<a href=""http://uconn.edu"" target=""_blank"">view website</a>","369 Fairfield Way, Storrs CT 06269",-21.2417886,-175.1285432,"369 FAIRFIELD RD, STORRS, CT, 06269",Match,US Census,Women
a,Vanuatu,https://upload.wikimedia.org/wikipedia/commons/4/41/You_are_here_-_T-shirt.jpg,"<a href=""http://uconn.edu"" target=""_blank"">view website</a>","369 Fairfield Way, Storrs CT 06269",-15.4492793,167.595411,"369 FAIRFIELD RD, STORRS, CT, 06269",Match,US Census,Women
