Group,Title,Image,Description,Latitude,Longitude,Category
a,Fiji,https://www.edx.org/sites/default/files/trinity1.jpg,"Not in the link <a href=""http://www.trincoll.edu"" target=""_blank"">view website</a> more not in the link",-17.4624892,179.2583049,Adults
a,PNG,https://upload.wikimedia.org/wikipedia/commons/4/41/You_are_here_-_T-shirt.jpg,"<a href=""http://wesleyan.edu"" target=""_blank"">view website</a>",-6.2645902,148.9638467,Youth
a,Samoa,https://upload.wikimedia.org/wikipedia/commons/4/41/You_are_here_-_T-shirt.jpg,"<a href=""http://conncoll.edu"" target=""_blank"">view website</a>",-13.7583109,-172.1047677,Seniors
a,Solomon Islands,https://upload.wikimedia.org/wikipedia/commons/4/41/You_are_here_-_T-shirt.jpg,"<a href=""http://yale.edu"" target=""_blank"">view website</a>",-9.2263493,159.1873907,Men
a,Tonga,https://upload.wikimedia.org/wikipedia/commons/4/41/You_are_here_-_T-shirt.jpg,"<a href=""http://uconn.edu"" target=""_blank"">view website</a>",-21.2417886,-175.1285432,Women
a,Vanuatu,https://upload.wikimedia.org/wikipedia/commons/4/41/You_are_here_-_T-shirt.jpg,"<a href=""http://uconn.edu"" target=""_blank"">view website</a>",-15.4492793,167.595411,Women
